[
    {
       "name":"Achnanclach",
       "grid":"NC630511",
       "url":"https://www.mountainbothies.org.uk/bothies/northern-highlands/achnanclach/",
       "lat":58.427216578851336,
       "lng":-4.3450728981754425
    },
    {
       "name":"Coiremor (Choire Mhoir)",
       "grid":"NH305888",
       "url":"https://www.mountainbothies.org.uk/bothies/northern-highlands/coiremor-choire-mhoir/",
       "lat":57.85679149988299,
       "lng":-4.856751493506846
    },
    {
       "name":"Croft House (Lochstrathy)",
       "grid":"NC793489",
       "url":"https://www.mountainbothies.org.uk/bothies/northern-highlands/croft-house-lochstrathy/",
       "lat":58.41268309607256,
       "lng":-4.065505057039264
    },
    {
       "name":"Glencoul",
       "grid":"NC270303",
       "url":"https://www.mountainbothies.org.uk/bothies/northern-highlands/glencoul/",
       "lat":58.22857555809047,
       "lng":-4.945422525905015
    },
    {
       "name":"Glendhu",
       "grid":"NC282337",
       "url":"https://www.mountainbothies.org.uk/bothies/northern-highlands/glendhu/",
       "lat":58.25960288271976,
       "lng":-4.926988774453269
    },
    {
       "name":"Kearvaig",
       "grid":"NC292727",
       "url":"https://www.mountainbothies.org.uk/bothies/northern-highlands/kearvaig/",
       "lat":58.60897611740525,
       "lng":-4.939983495026153
    },
    {
       "name":"Knockdamph",
       "grid":"NH285953",
       "url":"https://www.mountainbothies.org.uk/bothies/northern-highlands/knockdamph/",
       "lat":57.91516321596264,
       "lng":-4.8938646512258765
    },
    {
       "name":"Schoolhouse (Duag Bridge)",
       "grid":"NH340974",
       "url":"https://www.mountainbothies.org.uk/bothies/northern-highlands/schoolhouse-duag-bridge/",
       "lat":57.93608269224847,
       "lng":-4.803908735138286
    },
    {
       "name":"Shenavall",
       "grid":"NH065809",
       "url":"https://www.mountainbothies.org.uk/bothies/northern-highlands/shenavall/",
       "lat":57.777067616487386,
       "lng":-5.25292972879916
    },
    {
       "name":"Strabeg",
       "grid":"NC391517",
       "url":"https://www.mountainbothies.org.uk/bothies/northern-highlands/strabeg/",
       "lat":58.42518674779865,
       "lng":-4.754976059994712
    },
    {
       "name":"Strathan",
       "grid":"NC247611",
       "url":"https://www.mountainbothies.org.uk/bothies/northern-highlands/strathan/",
       "lat":58.50370958813023,
       "lng":-5.00842631030154
    },
    {
       "name":"Strathchailleach",
       "grid":"NC248657",
       "url":"https://www.mountainbothies.org.uk/bothies/northern-highlands/strathchailleach/",
       "lat":58.54514328896469,
       "lng":-5.009571863188658
    },
    {
       "name":"Suileag",
       "grid":"NC149211",
       "url":"https://www.mountainbothies.org.uk/bothies/northern-highlands/suileag/",
       "lat":58.14047773751521,
       "lng":-5.143645462630996
    },
    {
       "name":"Bearnais",
       "grid":"NH020430",
       "url":"https://www.mountainbothies.org.uk/bothies/north-west-highlands-islands/bearnais/",
       "lat":57.434580480381854,
       "lng":-5.29756379497987
    },
    {
       "name":"Camasunary",
       "grid":"NG517183",
       "url":"https://www.mountainbothies.org.uk/bothies/north-west-highlands-islands/camasunary/",
       "lat":57.18830480641833,
       "lng":-6.109514689191149
    },
    {
       "name":"Camban",
       "grid":"NH053183",
       "url":"https://www.mountainbothies.org.uk/bothies/north-west-highlands-islands/camban/",
       "lat":57.21505404736946,
       "lng":-5.224171348139217
    },
    {
       "name":"Coire Fionnaraich",
       "grid":"NG949479",
       "url":"https://www.mountainbothies.org.uk/bothies/north-west-highlands-islands/coire-fionnaraich/",
       "lat":57.47594767671456,
       "lng":-5.419816436367907
    },
    {
       "name":"Craig",
       "grid":"NG774638",
       "url":"https://www.mountainbothies.org.uk/bothies/north-west-highlands-islands/craig/",
       "lat":57.61017163457632,
       "lng":-5.726138072161138
    },
    {
       "name":"Easan Dorcha (The Teahouse)",
       "grid":"NH012525",
       "url":"https://www.mountainbothies.org.uk/bothies/north-west-highlands-islands/easan-dorcha-the-teahouse/",
       "lat":57.519874808486406,
       "lng":-5.319901759178986
    },
    {
       "name":"Lookout (Rubha Hunish)",
       "grid":"NG412762",
       "url":"https://www.mountainbothies.org.uk/bothies/north-west-highlands-islands/lookout-rubha-hunish/",
       "lat":57.701672764817864,
       "lng":-6.343835879177495
    },
    {
       "name":"Leysburnfoot (Will's Bothy)",
       "grid":"NY536977",
       "url":"https://www.mountainbothies.org.uk/bothies/southern-scotland/leysburnfoot-wills-bothy/",
       "lat":55.271270852225584,
       "lng":-2.7297399257537958
    },
    {
       "name":"Maol Bhuidhe",
       "grid":"NH052359",
       "url":"https://www.mountainbothies.org.uk/bothies/north-west-highlands-islands/maol-bhuidhe/",
       "lat":57.37262869305449,
       "lng":-5.239511550634006
    },
    {
       "name":"Ollisdal",
       "grid":"NG212394",
       "url":"https://www.mountainbothies.org.uk/bothies/north-west-highlands-islands/ollisdal/",
       "lat":57.35986227427829,
       "lng":-6.635637809216486
    },
    {
       "name":"Taigh Thormoid Dhuibh (Raasay)",
       "grid":"NG611526",
       "url":"https://www.mountainbothies.org.uk/bothies/north-west-highlands-islands/taigh-thormoid-dhuibh-raasay/",
       "lat":57.500710118498695,
       "lng":-5.987251629448609
    },
    {
       "name":"Uags",
       "grid":"NG722350",
       "url":"https://www.mountainbothies.org.uk/bothies/north-west-highlands-islands/uags/",
       "lat":57.3489198049523,
       "lng":-5.786610295584994
    },
    {
       "name":"Uisinis",
       "grid":"NF848332",
       "url":"https://www.mountainbothies.org.uk/bothies/north-west-highlands-islands/uisinis/",
       "lat":57.28090191316701,
       "lng":-7.230084837279266
    },
    {
       "name":"A'Chuil",
       "grid":"NM944924",
       "url":"https://www.mountainbothies.org.uk/bothies/western-highlands-islands/achuil/",
       "lat":56.97736439426315,
       "lng":-5.3834879556363
    },
    {
       "name":"Dibidil",
       "grid":"NM393927",
       "url":"https://www.mountainbothies.org.uk/bothies/western-highlands-islands/dibidil/",
       "lat":56.95244332037694,
       "lng":-6.2879991213930015
    },
    {
       "name":"Gleann Dubh-lighe",
       "grid":"NM944819",
       "url":"https://www.mountainbothies.org.uk/bothies/western-highlands-islands/gleann-dubh-lighe/",
       "lat":56.88362961073687,
       "lng":-5.373756468224948
    },
    {
       "name":"Glenpean",
       "grid":"NM936903",
       "url":"https://www.mountainbothies.org.uk/bothies/western-highlands-islands/glenpean/",
       "lat":56.95861664467209,
       "lng":-5.3948370821051865
    },
    {
       "name":"Guirdil",
       "grid":"NG320013",
       "url":"https://www.mountainbothies.org.uk/bothies/western-highlands-islands/guirdil/",
       "lat":57.02580000695843,
       "lng":-6.416730721600987
    },
    {
       "name":"Invermallie",
       "grid":"NN135887",
       "url":"https://www.mountainbothies.org.uk/bothies/western-highlands-islands/invermallie/",
       "lat":56.95289846195209,
       "lng":-5.066212550285408
    },
    {
       "name":"Kinbreack",
       "grid":"NN001960",
       "url":"https://www.mountainbothies.org.uk/bothies/western-highlands-islands/kinbreack/",
       "lat":57.01254347405558,
       "lng":-5.291908567528854
    },
    {
       "name":"Oban",
       "grid":"NM863900",
       "url":"https://www.mountainbothies.org.uk/bothies/western-highlands-islands/oban/",
       "lat":56.95251411366681,
       "lng":-5.514101726994613
    },
    {
       "name":"Sourlies",
       "grid":"NM868950",
       "url":"https://www.mountainbothies.org.uk/bothies/western-highlands-islands/sourlies/",
       "lat":56.997592028550656,
       "lng":-5.509441689465336
    },
    {
       "name":"Suardalan",
       "grid":"NG882172",
       "url":"https://www.mountainbothies.org.uk/bothies/western-highlands-islands/suardalan/",
       "lat":57.19740248623429,
       "lng":-5.5048749602789675
    },
    {
       "name":"Ben Alder Cottage",
       "grid":"NN498679",
       "url":"https://www.mountainbothies.org.uk/bothies/central-highlands/ben-alder-cottage/",
       "lat":56.7792251190565,
       "lng":-4.457731606767707
    },
    {
       "name":"Blackburn of Corrieyairack",
       "grid":"NH381028",
       "url":"https://www.mountainbothies.org.uk/bothies/central-highlands/blackburn-of-corrieyairack/",
       "lat":57.088448728460904,
       "lng":-4.670674200817017
    },
    {
       "name":"Culra",
       "grid":"NN522761",
       "url":"https://www.mountainbothies.org.uk/bothies/central-highlands/culra/",
       "lat":56.85376479300422,
       "lng":-4.4226239808974945
    },
    {
       "name":"Glenbuck",
       "grid":"NN335995",
       "url":"https://www.mountainbothies.org.uk/bothies/central-highlands/glenbuck/",
       "lat":57.0571551942013,
       "lng":-4.744504595599755
    },
    {
       "name":"Gorton",
       "grid":"NN374481",
       "url":"https://www.mountainbothies.org.uk/bothies/central-highlands/gorton/",
       "lat":56.596936647959154,
       "lng":-4.647415911413205
    },
    {
       "name":"Lairig Leacach",
       "grid":"NN282736",
       "url":"https://www.mountainbothies.org.uk/bothies/central-highlands/lairig-leacach/",
       "lat":56.82275303376202,
       "lng":-4.81503202652694
    },
    {
       "name":"Loch Chiarain",
       "grid":"NN288633",
       "url":"https://www.mountainbothies.org.uk/bothies/central-highlands/loch-chiarain/",
       "lat":56.730720287814215,
       "lng":-4.79764639686286
    },
    {
       "name":"Luib Chonnal",
       "grid":"NN393936",
       "url":"https://www.mountainbothies.org.uk/bothies/central-highlands/luib-chonnal/",
       "lat":57.006152792465436,
       "lng":-4.645283052456577
    },
    {
       "name":"Meanach",
       "grid":"NN265684",
       "url":"https://www.mountainbothies.org.uk/bothies/central-highlands/meanach/",
       "lat":56.775744509048174,
       "lng":-4.838262171660486
    },
    {
       "name":"Staoineag",
       "grid":"NN295678",
       "url":"https://www.mountainbothies.org.uk/bothies/central-highlands/staoineag/",
       "lat":56.77082544833779,
       "lng":-4.788975549156553
    },
    {
       "name":"Allt Scheicheachan",
       "grid":"NN834736",
       "url":"https://www.mountainbothies.org.uk/bothies/eastern-highlands/allt-scheicheachan/",
       "lat":56.84009322138496,
       "lng":-3.910071011385464
    },
    {
       "name":"Callater Stable",
       "grid":"NO178845",
       "url":"https://www.mountainbothies.org.uk/bothies/eastern-highlands/callater-stable/",
       "lat":56.94488524943147,
       "lng":-3.3511544132932323
    },
    {
       "name":"Charr",
       "grid":"NO615831",
       "url":"https://www.mountainbothies.org.uk/bothies/eastern-highlands/charr/",
       "lat":56.93792205882007,
       "lng":-2.6313012519910273
    },
    {
       "name":"Corrour",
       "grid":"NN980958",
       "url":"https://www.mountainbothies.org.uk/bothies/eastern-highlands/corrour/",
       "lat":57.04232664190494,
       "lng":-3.679741365290116
    },
    {
       "name":"Faindouran",
       "grid":"NJ081061",
       "url":"https://www.mountainbothies.org.uk/bothies/eastern-highlands/faindouran/",
       "lat":57.13734347078105,
       "lng":-3.517471699958226
    },
    {
       "name":"Fords of Avon Refuge",
       "grid":"NJ042032",
       "url":"https://www.mountainbothies.org.uk/bothies/eastern-highlands/fords-of-avon-refuge/",
       "lat":57.10995930662388,
       "lng":-3.5818971508767894
    },
    {
       "name":"Gelder Shiel Stable",
       "grid":"NO257900",
       "url":"https://www.mountainbothies.org.uk/bothies/eastern-highlands/gelder-shiel-stable/",
       "lat":56.995460442329296,
       "lng":-3.222124286028437
    },
    {
       "name":"Hutchison Memorial Hut (Etchachan)",
       "grid":"NO022997",
       "url":"https://www.mountainbothies.org.uk/bothies/eastern-highlands/hutchison-memorial-hut-etchachan/",
       "lat":57.07868975818435,
       "lng":-3.612197319944337
    },
    {
       "name":"Ruigh Aiteachain",
       "grid":"NN847928",
       "url":"https://www.mountainbothies.org.uk/bothies/eastern-highlands/ruigh-aiteachain/",
       "lat":57.01215788799111,
       "lng":-3.89873951789228
    },
    {
       "name":"Ryvoan",
       "grid":"NJ005115",
       "url":"https://www.mountainbothies.org.uk/bothies/eastern-highlands/ryvoan/",
       "lat":57.18400570346177,
       "lng":-3.6450454798816105
    },
    {
       "name":"Shielin of Mark",
       "grid":"NO336826",
       "url":"https://www.mountainbothies.org.uk/bothies/eastern-highlands/shielin-of-mark/",
       "lat":56.93041848125018,
       "lng":-3.0897591026593787
    },
    {
       "name":"Tarf Hotel (Feith Uaine)",
       "grid":"NN926789",
       "url":"https://www.mountainbothies.org.uk/bothies/eastern-highlands/tarf-hotel-feith-uaine/",
       "lat":56.88920809050428,
       "lng":-3.761845643515836
    },
    {
       "name":"An Cladach",
       "grid":"NR439622",
       "url":"https://www.mountainbothies.org.uk/bothies/southwest-highlands-islands/an-cladach/",
       "lat":55.78562102576907,
       "lng":-6.084259424547817
    },
    {
       "name":"Cadderlie",
       "grid":"NN046370",
       "url":"https://www.mountainbothies.org.uk/bothies/southwest-highlands-islands/cadderlie/",
       "lat":56.48466543283708,
       "lng":-5.17375595605667
    },
    {
       "name":"Carron",
       "grid":"NR944996",
       "url":"https://www.mountainbothies.org.uk/bothies/southwest-highlands-islands/carron/",
       "lat":56.14492013626934,
       "lng":-5.30967775403604
    },
    {
       "name":"Cruib",
       "grid":"NR566828",
       "url":"https://www.mountainbothies.org.uk/bothies/southwest-highlands-islands/cruib/",
       "lat":55.97723619540999,
       "lng":-5.900744478649272
    },
    {
       "name":"Doune Byre",
       "grid":"NN332144",
       "url":"https://www.mountainbothies.org.uk/bothies/southwest-highlands-islands/doune-byre/",
       "lat":56.293043174919944,
       "lng":-4.695267609131228
    },
    {
       "name":"Essan",
       "grid":"NM817816",
       "url":"https://www.mountainbothies.org.uk/bothies/southwest-highlands-islands/essan/",
       "lat":56.87520858604377,
       "lng":-5.5823571404304415
    },
    {
       "name":"Glengarrisdale",
       "grid":"NR644969",
       "url":"https://www.mountainbothies.org.uk/bothies/southwest-highlands-islands/glengarrisdale/",
       "lat":56.107237445618225,
       "lng":-5.789110796784624
    },
    {
       "name":"Leacraithnaich",
       "grid":"NM741471",
       "url":"https://www.mountainbothies.org.uk/bothies/southwest-highlands-islands/leacraithnaich/",
       "lat":56.56193532836337,
       "lng":-5.6753709252115865
    },
    {
       "name":"Mark Cottage",
       "grid":"NS229951",
       "url":"https://www.mountainbothies.org.uk/bothies/southwest-highlands-islands/mark-cottage/",
       "lat":56.116582323751686,
       "lng":-4.848293927631987
    },
    {
       "name":"Peanmeanach",
       "grid":"NM712805",
       "url":"https://www.mountainbothies.org.uk/bothies/southwest-highlands-islands/peanmeanach/",
       "lat":56.859768545985915,
       "lng":-5.752760638796992
    },
    {
       "name":"Resourie",
       "grid":"NM861709",
       "url":"https://www.mountainbothies.org.uk/bothies/southwest-highlands-islands/resourie/",
       "lat":56.7810949124862,
       "lng":-5.501007855381964
    },
    {
       "name":"Rowchoish",
       "grid":"NN335042",
       "url":"https://www.mountainbothies.org.uk/bothies/southwest-highlands-islands/rowchoish/",
       "lat":56.20207343115292,
       "lng":-4.68283242227927
    },
    {
       "name":"Taigh Seumas a&rsquo; Ghlinne (Glenduror)",
       "grid":"NN021539",
       "url":"https://www.mountainbothies.org.uk/bothies/southwest-highlands-islands/taigh-seumas-a-ghlinne-glenduror/",
       "lat":56.63555590006399,
       "lng":-5.225954289514902
    },
    {
       "name":"Tomsleibhe",
       "grid":"NM617372",
       "url":"https://www.mountainbothies.org.uk/bothies/southwest-highlands-islands/tomsleibhe/",
       "lat":56.466734297881345,
       "lng":-5.868411478231844
    },
    {
       "name":"Brattleburn",
       "grid":"NT015069",
       "url":"https://www.mountainbothies.org.uk/bothies/southern-scotland/brattleburn/",
       "lat":55.346489410042594,
       "lng":-3.5521572766221863
    },
    {
       "name":"Burleywhag",
       "grid":"NS971000",
       "url":"https://www.mountainbothies.org.uk/bothies/southern-scotland/burleywhag/",
       "lat":55.28405927275837,
       "lng":-3.619970733398908
    },
    {
       "name":"Clennoch",
       "grid":"NS603001",
       "url":"https://www.mountainbothies.org.uk/bothies/southern-scotland/clennoch/",
       "lat":55.2757108050768,
       "lng":-4.199077957501191
    },
    {
       "name":"Dryfehead",
       "grid":"NY170999",
       "url":"https://www.mountainbothies.org.uk/bothies/southern-scotland/dryfehead/",
       "lat":55.28676936230793,
       "lng":-3.3068588990184264
    },
    {
       "name":"Gameshope",
       "grid":"NT134184",
       "url":"https://www.mountainbothies.org.uk/bothies/southern-scotland/gameshope/",
       "lat":55.452515312371595,
       "lng":-3.3678570444117226
    },
    {
       "name":"Greensykes",
       "grid":"NT312000",
       "url":"https://www.mountainbothies.org.uk/bothies/southern-scotland/greensykes/",
       "lat":55.289838891725985,
       "lng":-3.083196170002172
    },
    {
       "name":"Kettleton Byre",
       "grid":"NS911020",
       "url":"https://www.mountainbothies.org.uk/bothies/southern-scotland/kettleton-byre/",
       "lat":55.30059011517927,
       "lng":-3.7146358868692286
    },
    {
       "name":"Over Phawhope",
       "grid":"NT181081",
       "url":"https://www.mountainbothies.org.uk/bothies/southern-scotland/over-phawhope/",
       "lat":55.36059093524399,
       "lng":-3.291004118405672
    },
    {
       "name":"Tunskeen",
       "grid":"NX424905",
       "url":"https://www.mountainbothies.org.uk/bothies/southern-scotland/tunskeen/",
       "lat":55.184075745215885,
       "lng":-4.474761248200335
    },
    {
       "name":"White Laggan",
       "grid":"NX466774",
       "url":"https://www.mountainbothies.org.uk/bothies/southern-scotland/white-laggan/",
       "lat":55.068070046423856,
       "lng":-4.402048606412149
    },
    {
       "name":"Cross Fell (Greg&rsquo;s Hut)",
       "grid":"NY690354",
       "url":"https://www.mountainbothies.org.uk/bothies/northern-england-borders/cross-fell-gregs-hut/",
       "lat":54.7127137337369,
       "lng":-2.479987850199995
    },
    {
       "name":"Dubs Hut",
       "grid":"NY209134",
       "url":"https://www.mountainbothies.org.uk/bothies/northern-england-borders/dubs-hut/",
       "lat":54.50987087022176,
       "lng":-3.2215377225910786
    },
    {
       "name":"Green",
       "grid":"NY740786",
       "url":"https://www.mountainbothies.org.uk/bothies/northern-england-borders/green/",
       "lat":55.10116424711782,
       "lng":-2.4075163080444106
    },
    {
       "name":"Haughtongreen",
       "grid":"NY788712",
       "url":"https://www.mountainbothies.org.uk/bothies/northern-england-borders/haughtongreen/",
       "lat":55.03539241688889,
       "lng":-2.3317220621039665
    },
    {
       "name":"Kershopehead",
       "grid":"NY544862",
       "url":"https://www.mountainbothies.org.uk/bothies/northern-england-borders/kershopehead/",
       "lat":55.168791820475114,
       "lng":-2.715856009211359
    },
    {
       "name":"Mosedale Cottage",
       "grid":"NY494095",
       "url":"https://www.mountainbothies.org.uk/bothies/northern-england-borders/mosedale-cottage/",
       "lat":54.4782017857915,
       "lng":-2.7799153508193903
    },
    {
       "name":"Roughside",
       "grid":"NY745832",
       "url":"https://www.mountainbothies.org.uk/bothies/northern-england-borders/roughside/",
       "lat":55.14320533729691,
       "lng":-2.3995659837938543
    },
    {
       "name":"Spithope",
       "grid":"NT768056",
       "url":"https://www.mountainbothies.org.uk/bothies/northern-england-borders/spithope/",
       "lat":55.344540085593685,
       "lng":-2.364941326674392
    },
    {
       "name":"Wainhope",
       "grid":"NY670925",
       "url":"https://www.mountainbothies.org.uk/bothies/northern-england-borders/wainhope/",
       "lat":55.2255872194694,
       "lng":-2.5173524176386612
    },
    {
       "name":"Warnscale Head",
       "grid":"NY205132",
       "url":"https://www.mountainbothies.org.uk/bothies/northern-england-borders/warnscale-head/",
       "lat":54.50801740174701,
       "lng":-3.227043317233881
    },
    {
       "name":"Arenig Fawr",
       "grid":"SH850379",
       "url":"https://www.mountainbothies.org.uk/bothies/wales/arenig-fawr/",
       "lat":52.92593227138878,
       "lng":-3.7104119566336937
    },
    {
       "name":"Dulyn",
       "grid":"SH705663",
       "url":"https://www.mountainbothies.org.uk/bothies/wales/dulyn/",
       "lat":53.1785967965738,
       "lng":-3.937518668951099
    },
    {
       "name":"Grwyne Fawr",
       "grid":"SO225312",
       "url":"https://www.mountainbothies.org.uk/bothies/wales/grwyne-fawr/",
       "lat":51.97392600707925,
       "lng":-3.1272989287512165
    },
    {
       "name":"Lluest Cwmbach",
       "grid":"SN900704",
       "url":"https://www.mountainbothies.org.uk/bothies/wales/lluest-cwmbach/",
       "lat":52.32100957525638,
       "lng":-3.613025071265243
    },
    {
       "name":"Moel Prysgau",
       "grid":"SN806611",
       "url":"https://www.mountainbothies.org.uk/bothies/wales/moel-prysgau/",
       "lat":52.23532446709142,
       "lng":-3.748046725688979
    },
    {
       "name":"Nant Rhys",
       "grid":"SN836792",
       "url":"https://www.mountainbothies.org.uk/bothies/wales/nant-rhys/",
       "lat":52.39878636669155,
       "lng":-3.709958133335416
    },
    {
       "name":"Nant Syddion",
       "grid":"SN773790",
       "url":"https://www.mountainbothies.org.uk/bothies/wales/nant-syddion/",
       "lat":52.3954898836129,
       "lng":-3.802893610570303
    },
    {
       "name":"Penrhos Isaf",
       "grid":"SH737238",
       "url":"https://www.mountainbothies.org.uk/bothies/wales/penrhos-isaf/",
       "lat":52.79662650068439,
       "lng":-3.8734541796160116
    },
    {
       "name":"Abyssinia",
       "grid":"NN255116",
       "url":"https://www.mountainbothies.org.uk/bothies/southwest-highlands-islands/abyssinia/",
       "lat":56.2655882395442,
       "lng":-4.81681338373762
    },
    {
       "name":"Flittingford",
       "grid":"NY753886",
       "url":"https://www.mountainbothies.org.uk/bothies/northern-england-borders/flittingford/",
       "lat":55.19102901951318,
       "lng":-2.387304461975437
    },
    {
       "name":"Cae Amos",
       "grid":"SH516454",
       "url":"https://www.mountainbothies.org.uk/bothies/wales/cae-amos/",
       "lat":52.98567194999795,
       "lng":-4.210273694061528
    },
    {
       "name":"Garbh Choire Refuge",
       "grid":"NN959986",
       "url":"https://www.mountainbothies.org.uk/bothies/eastern-highlands/garbh-choire-refuge/",
       "lat":57.067123966316444,
       "lng":-3.716459457409869
    },
    {
       "name":"Great Lingy Hut",
       "grid":"NY311336",
       "url":"https://www.mountainbothies.org.uk/bothies/northern-england-borders/great-lingy-hut/",
       "lat":54.69265672848433,
       "lng":-3.0677883723912034
    },
    {
       "name":"Glas Allt Shiel",
       "grid":"NO276824",
       "url":"https://www.mountainbothies.org.uk/bothies/eastern-highlands/glas-allt-shiel/",
       "lat":56.92765361342389,
       "lng":-3.189062384923022
    },
    {
       "name":"Ruighe Ealasaid, the Red House",
       "grid":"NO002869",
       "url":"https://www.mountainbothies.org.uk/bothies/eastern-highlands/ruighe-ealasaid-the-red-house/",
       "lat":56.96281278767961,
       "lng":-3.6403179541630806
    }
 ]